City,Latitude,Longitude
Mumbai,19.0760,72.8777
Pune,18.5204,73.8567
Nagpur,21.1458,79.0882
Delhi,28.6139,77.2090
Noida,28.5355,77.3910
Ghaziabad,28.6692,77.4538
Bengaluru,12.9716,77.5946
Mysuru,12.2958,76.6394
Mangalore,12.9141,74.8560
Kolkata,22.5726,88.3639
Howrah,22.5958,88.2636
Kharagpur,22.3460,87.2316
Hyderabad,17.3850,78.4867
Secunderabad,17.4399,78.4983
Warangal,17.9784,79.5941
